PacketCounter,UTC_Nano,UTC_Year,UTC_Month,UTC_Day,UTC_Hour,UTC_Minute,UTC_Second,UTC_Valid,Roll,Pitch,Yaw,Latitude,Longitude,Altitude,Vel_X,Vel_Y,Vel_Z
40095,439900000,2021,1,2,6,48,37,247,0.906062,1.620286,-15.635726,33.97369402,-117.7738442,347.117403,0.082605,-0.469959,-0.003451
40096,442400000,2021,1,2,6,48,37,247,0.905927,1.619989,-15.635664,33.97369401,-117.7738442,347.117394,0.082607,-0.470178,-0.003406
40097,444900000,2021,1,2,6,48,37,247,0.906028,1.619875,-15.635236,33.973694,-117.7738442,347.117386,0.082575,-0.470438,-0.003463
40098,447400000,2021,1,2,6,48,37,247,0.905811,1.620218,-15.635159,33.97369399,-117.7738442,347.117377,0.082556,-0.470676,-0.003403
40099,449900000,2021,1,2,6,48,37,247,0.905739,1.62062,-15.634455,33.97369398,-117.7738442,347.117557,0.082465,-0.470948,-0.003348
40100,452400000,2021,1,2,6,48,37,247,0.905285,1.621403,-15.634737,33.97369397,-117.7738442,347.117549,0.082458,-0.471191,-0.003379
40101,454900000,2021,1,2,6,48,37,247,0.905839,1.621424,-15.634897,33.97369396,-117.7738442,347.11754,0.082409,-0.471412,-0.003322
40102,457400000,2021,1,2,6,48,37,247,0.906306,1.622024,-15.634372,33.97369395,-117.7738442,347.117532,0.082369,-0.471626,-0.003309
40103,459900000,2021,1,2,6,48,37,247,0.906278,1.622001,-15.633651,33.97369394,-117.7738442,347.117523,0.082377,-0.471913,-0.003338
40104,462400000,2021,1,2,6,48,37,247,0.906644,1.62182,-15.632946,33.97369393,-117.7738442,347.117515,0.082376,-0.472252,-0.003349
40105,464900000,2021,1,2,6,48,37,247,0.907431,1.62211,-15.632505,33.97369392,-117.7738442,347.117507,0.082374,-0.472578,-0.003375
40106,467400000,2021,1,2,6,48,37,247,0.907632,1.622262,-15.632255,33.9736939,-117.7738442,347.117498,0.08234,-0.472895,-0.003384
40107,469900000,2021,1,2,6,48,37,247,0.908165,1.621274,-15.632493,33.97369389,-117.7738442,347.115182,0.082371,-0.473142,-0.004205
40108,472400000,2021,1,2,6,48,37,247,0.907912,1.620618,-15.632942,33.97369388,-117.7738442,347.115171,0.082492,-0.473395,-0.00424
40109,474900000,2021,1,2,6,48,37,247,0.907561,1.619905,-15.633307,33.97369387,-117.7738442,347.115161,0.082516,-0.473627,-0.004313
40110,477400000,2021,1,2,6,48,37,247,0.90796,1.618431,-15.633711,33.97369386,-117.7738442,347.11515,0.082538,-0.473796,-0.004332
40111,479900000,2021,1,2,6,48,37,247,0.908109,1.617828,-15.634677,33.97369385,-117.7738442,347.115139,0.082541,-0.474014,-0.00429
40112,482400000,2021,1,2,6,48,37,247,0.908421,1.617604,-15.634549,33.97369384,-117.7738442,347.115128,0.08253,-0.474219,-0.004252
40113,484900000,2021,1,2,6,48,37,247,0.908259,1.616605,-15.634593,33.97369383,-117.7738442,347.115118,0.082501,-0.474403,-0.00419
40114,487400000,2021,1,2,6,48,37,247,0.908459,1.615826,-15.634295,33.97369382,-117.7738442,347.115108,0.082573,-0.474635,-0.004128
40115,489900000,2021,1,2,6,48,37,247,0.908968,1.616137,-15.633689,33.97369381,-117.7738442,347.112801,0.082598,-0.474746,-0.00497
40116,492400000,2021,1,2,6,48,37,247,0.909705,1.616291,-15.634081,33.9736938,-117.7738442,347.112788,0.082709,-0.474966,-0.004943
40117,494900000,2021,1,2,6,48,37,247,0.910141,1.616341,-15.633936,33.97369379,-117.7738442,347.112776,0.082897,-0.47526,-0.00495
40118,497400000,2021,1,2,6,48,37,247,0.910481,1.616277,-15.634022,33.97369378,-117.7738442,347.112763,0.082967,-0.475552,-0.004954
40119,499900000,2021,1,2,6,48,37,247,0.911268,1.616636,-15.633837,33.97369377,-117.7738442,347.112751,0.08311,-0.475759,-0.004972
40120,502400000,2021,1,2,6,48,37,247,0.911655,1.616625,-15.633858,33.97369376,-117.7738442,347.112738,0.083222,-0.475919,-0.004959
40121,504900000,2021,1,2,6,48,37,247,0.911907,1.615806,-15.633347,33.97369374,-117.7738442,347.112726,0.083299,-0.476113,-0.00499
40122,507400000,2021,1,2,6,48,37,247,0.912059,1.616069,-15.633176,33.97369373,-117.7738442,347.112714,0.083397,-0.476289,-0.005034
40123,509900000,2021,1,2,6,48,37,247,0.911381,1.616388,-15.633305,33.97369372,-117.7738442,347.112938,0.083487,-0.476493,-0.004995
40124,512400000,2021,1,2,6,48,37,247,0.911353,1.616376,-15.632283,33.97369371,-117.7738442,347.112926,0.083601,-0.476624,-0.005091
40125,514900000,2021,1,2,6,48,37,247,0.911589,1.616084,-15.632635,33.9736937,-117.7738442,347.112913,0.083726,-0.476877,-0.005083
40126,517400000,2021,1,2,6,48,37,247,0.911507,1.61606,-15.633069,33.97369369,-117.7738441,347.1129,0.083814,-0.477005,-0.005114
40127,519900000,2021,1,2,6,48,37,247,0.911701,1.616261,-15.632155,33.97369368,-117.7738441,347.112887,0.083872,-0.47712,-0.0052
40128,522400000,2021,1,2,6,48,37,247,0.912085,1.616396,-15.632179,33.97369367,-117.7738441,347.112874,0.083932,-0.477309,-0.005197
40129,524900000,2021,1,2,6,48,37,247,0.913701,1.617001,-15.631827,33.97369366,-117.7738441,347.112861,0.083979,-0.47758,-0.005238
40130,527400000,2021,1,2,6,48,37,247,0.913733,1.617666,-15.631179,33.97369365,-117.7738441,347.112848,0.084002,-0.477839,-0.00527
40131,529900000,2021,1,2,6,48,37,247,0.913941,1.618434,-15.630929,33.97369364,-117.7738441,347.118171,0.084047,-0.478014,-0.003208
40132,532400000,2021,1,2,6,48,37,247,0.913489,1.618784,-15.630456,33.97369363,-117.7738441,347.118163,0.084067,-0.478188,-0.003276
40133,534900000,2021,1,2,6,48,37,247,0.91343,1.619254,-15.629905,33.97369362,-117.7738441,347.118155,0.084037,-0.47845,-0.003201
40134,537400000,2021,1,2,6,48,37,247,0.914088,1.619362,-15.629911,33.97369361,-117.7738441,347.118147,0.084019,-0.478571,-0.003156
40135,539900000,2021,1,2,6,48,37,247,0.914081,1.619751,-15.629751,33.97369359,-117.7738441,347.118139,0.084,-0.478829,-0.003187
40136,542400000,2021,1,2,6,48,37,247,0.913766,1.61947,-15.62964,33.97369358,-117.7738441,347.118131,0.083916,-0.479118,-0.003237
40137,544900000,2021,1,2,6,48,37,247,0.913786,1.619177,-15.629283,33.97369357,-117.7738441,347.118123,0.083864,-0.479295,-0.003299
40138,547400000,2021,1,2,6,48,37,247,0.912921,1.619015,-15.628293,33.97369356,-117.7738441,347.118114,0.083835,-0.479572,-0.00333
40139,549900000,2021,1,2,6,48,37,247,0.912762,1.618889,-15.627786,33.97369355,-117.7738441,347.115742,0.08387,-0.479828,-0.004226
40140,500000000,2021,1,2,6,48,37,247,,,,,,0,,,
40141,552400000,2021,1,2,6,48,37,247,0.912144,1.619076,-15.628088,33.97369354,-117.7738441,347.115731,0.083868,-0.480067,-0.00428
40142,554900000,2021,1,2,6,48,37,247,0.912726,1.619372,-15.62841,33.97369353,-117.7738441,347.11572,0.08388,-0.480372,-0.004287
40143,557400000,2021,1,2,6,48,37,247,0.913428,1.619789,-15.627693,33.97369352,-117.7738441,347.11571,0.083861,-0.480684,-0.00433
40144,559900000,2021,1,2,6,48,37,247,0.913801,1.619821,-15.627259,33.97369351,-117.7738441,347.115699,0.083878,-0.481012,-0.0043
40145,562400000,2021,1,2,6,48,37,247,0.914318,1.619732,-15.626609,33.9736935,-117.7738441,347.115688,0.083833,-0.481224,-0.004318
40146,564900000,2021,1,2,6,48,37,247,0.914355,1.619698,-15.626471,33.97369349,-117.7738441,347.115677,0.083873,-0.481435,-0.004444
40147,567400000,2021,1,2,6,48,37,247,0.913685,1.619672,-15.626215,33.97369348,-117.7738441,347.115666,0.083893,-0.48171,-0.004492
40148,569900000,2021,1,2,6,48,37,247,0.900315,1.613557,-15.610101,33.9736942,-117.7738442,347.134533,0.081004,-0.461775,-0.000294
40149,572400000,2021,1,2,6,48,37,247,0.899937,1.614179,-15.609998,33.97369419,-117.7738442,347.134532,0.081036,-0.462084,-0.000275
40150,574900000,2021,1,2,6,48,37,247,0.899985,1.614277,-15.609361,33.97369418,-117.7738442,347.134531,0.081059,-0.462326,-0.000322
40151,577400000,2021,1,2,6,48,37,247,0.899972,1.614216,-15.609315,33.97369417,-117.7738442,347.134531,0.081122,-0.462493,-0.000406
40152,579900000,2021,1,2,6,48,37,247,0.900072,1.613774,-15.609993,33.97369416,-117.7738442,347.132139,0.08121,-0.462696,-0.001213
40153,582400000,2021,1,2,6,48,37,247,0.900486,1.613458,-15.610466,33.97369415,-117.7738442,347.132136,0.081278,-0.462963,-0.00122
40154,584900000,2021,1,2,6,48,37,247,0.90111,1.613504,-15.609766,33.97369414,-117.7738442,347.132133,0.081282,-0.463215,-0.001256
40155,587400000,2021,1,2,6,48,37,247,0.901751,1.613327,-15.609566,33.97369413,-117.7738442,347.13213,0.081313,-0.463416,-0.001234
40156,589900000,2021,1,2,6,48,37,247,0.902112,1.613415,-15.609187,33.97369412,-117.7738442,347.124865,0.081357,-0.463593,-0.003824
40157,592400000,2021,1,2,6,48,37,247,0.902544,1.613068,-15.608727,33.97369411,-117.7738442,347.124855,0.081449,-0.463771,-0.003863
40158,594900000,2021,1,2,6,48,37,247,0.903015,1.613559,-15.608912,33.97369409,-117.7738441,347.124846,0.081502,-0.463906,-0.003882
40159,597400000,2021,1,2,6,48,37,247,0.903925,1.613273,-15.608617,33.97369408,-117.7738441,347.124836,0.081554,-0.464102,-0.00389
40160,599900000,2021,1,2,6,48,37,247,0.904069,1.61368,-15.608813,33.97369407,-117.7738441,347.124826,0.081567,-0.464237,-0.003934
40161,602400000,2021,1,2,6,48,37,247,0.903894,1.612949,-15.609107,33.97369406,-117.7738441,347.124816,0.081609,-0.464494,-0.00396
40162,604900000,2021,1,2,6,48,37,247,0.903576,1.613035,-15.608849,33.97369405,-117.7738441,347.124806,0.0817,-0.464681,-0.003961
40163,607400000,2021,1,2,6,48,37,247,0.904072,1.612465,-15.608518,33.97369404,-117.7738441,347.124796,0.081774,-0.464854,-0.003978
40164,609900000,2021,1,2,6,48,37,247,0.903928,1.612631,-15.608157,33.97369403,-117.7738441,347.120009,0.081885,-0.46505,-0.005652
40165,612400000,2021,1,2,6,48,37,247,0.904015,1.612384,-15.606742,33.97369402,-117.7738441,347.119995,0.08194,-0.465223,-0.005622
40166,614900000,2021,1,2,6,48,37,247,0.903592,1.612799,-15.606731,33.97369401,-117.7738441,347.119981,0.08196,-0.465462,-0.005631
40167,617400000,2021,1,2,6,48,37,247,0.903324,1.612925,-15.606617,33.973694,-117.7738441,347.119967,0.082012,-0.46563,-0.005612
40168,619900000,2021,1,2,6,48,37,247,0.902921,1.613103,-15.606092,33.97369399,-117.7738441,347.119953,0.082081,-0.465818,-0.005621
40169,622400000,2021,1,2,6,48,37,247,0.903532,1.612235,-15.605724,33.97369398,-117.7738441,347.119939,0.082065,-0.466013,-0.00567
40170,624900000,2021,1,2,6,48,37,247,0.904204,1.612449,-15.604855,33.97369397,-117.7738441,347.119925,0.082088,-0.46624,-0.005679
40171,627400000,2021,1,2,6,48,37,247,0.90485,1.612865,-15.604187,33.97369396,-117.7738441,347.119911,0.082125,-0.466448,-0.005668
40172,629900000,2021,1,2,6,48,37,247,0.905237,1.613452,-15.603521,33.97369395,-117.7738441,347.115143,0.082265,-0.466771,-0.007312
40173,632400000,2021,1,2,6,48,37,247,0.906077,1.61371,-15.603716,33.97369394,-117.7738441,347.115125,0.082277,-0.466923,-0.007338
40174,634900000,2021,1,2,6,48,37,247,0.905977,1.613627,-15.603535,33.97369393,-117.7738441,347.115107,0.082232,-0.467088,-0.007332
40175,637400000,2021,1,2,6,48,37,247,0.90547,1.614055,-15.603289,33.97369392,-117.7738441,347.115088,0.082277,-0.467358,-0.007403
40176,639900000,2021,1,2,6,48,37,247,0.905391,1.613456,-15.60304,33.97369391,-117.7738441,347.11507,0.082294,-0.4676,-0.00745
40177,642400000,2021,1,2,6,48,37,247,0.905906,1.613525,-15.602655,33.9736939,-117.7738441,347.115051,0.082285,-0.467876,-0.007425
40178,644900000,2021,1,2,6,48,37,247,0.906491,1.613442,-15.603003,33.97369389,-117.7738441,347.115032,0.082294,-0.468096,-0.007452
40179,647400000,2021,1,2,6,48,37,247,0.906433,1.613712,-15.602804,33.97369387,-117.7738441,347.115014,0.082303,-0.46834,-0.007536
40180,649900000,2021,1,2,6,48,37,247,0.906616,1.612756,-15.603072,33.97369386,-117.7738441,347.115237,0.082267,-0.468613,-0.00734
40181,652400000,2021,1,2,6,48,37,247,0.906555,1.612829,-15.601848,33.97369385,-117.7738441,347.115219,0.082241,-0.468871,-0.007408
40182,654900000,2021,1,2,6,48,37,247,0.906375,1.612602,-15.601718,33.97369384,-117.7738441,347.1152,0.082244,-0.469199,-0.007378
40183,657400000,2021,1,2,6,48,37,247,0.906012,1.612639,-15.601754,33.97369383,-117.7738441,347.115182,0.082186,-0.469445,-0.007381
40184,659900000,2021,1,2,6,48,37,247,0.90639,1.613586,-15.601805,33.97369382,-117.7738441,347.115163,0.08224,-0.469795,-0.00742
40185,662400000,2021,1,2,6,48,37,247,0.906668,1.613644,-15.601705,33.97369381,-117.7738441,347.115144,0.082247,-0.470063,-0.00746
40186,664900000,2021,1,2,6,48,37,247,0.907728,1.614151,-15.602016,33.9736938,-117.7738441,347.115126,0.082265,-0.47034,-0.007443
40187,667400000,2021,1,2,6,48,37,247,0.907991,1.614479,-15.602294,33.97369379,-117.7738441,347.115107,0.082231,-0.470629,-0.00746
40188,669900000,2021,1,2,6,48,37,247,0.908206,1.613343,-15.602217,33.97369378,-117.7738441,347.112845,0.082274,-0.470921,-0.00825
40189,672400000,2021,1,2,6,48,37,247,0.907721,1.613124,-15.602538,33.97369377,-117.7738441,347.112825,0.082307,-0.47123,-0.0082
40190,674900000,2021,1,2,6,48,37,247,0.907903,1.61349,-15.602163,33.97369376,-117.7738441,347.112804,0.08229,-0.471411,-0.008298
40191,677400000,2021,1,2,6,48,37,247,0.907497,1.613012,-15.601805,33.97369375,-117.7738441,347.112783,0.08231,-0.471583,-0.008267
40192,679900000,2021,1,2,6,48,37,247,0.907966,1.613093,-15.601122,33.97369374,-117.7738441,347.112763,0.082336,-0.471811,-0.008284
40193,682400000,2021,1,2,6,48,37,247,0.907383,1.612473,-15.600924,33.97369373,-117.7738441,347.112742,0.082384,-0.472036,-0.008263
40194,684900000,2021,1,2,6,48,37,247,0.907556,1.612357,-15.600774,33.97369372,-117.7738441,347.112722,0.082421,-0.472302,-0.008216
40195,687400000,2021,1,2,6,48,37,247,0.907956,1.612188,-15.601332,33.97369371,-117.7738441,347.112701,0.082472,-0.472527,-0.008237
40196,689900000,2021,1,2,6,48,37,247,0.907853,1.612874,-15.601197,33.97369369,-117.7738441,347.105428,0.08249,-0.472698,-0.010937
40197,692400000,2021,1,2,6,48,37,247,0.908133,1.612877,-15.601064,33.97369368,-117.7738441,347.105401,0.082559,-0.47286,-0.010957
40198,694900000,2021,1,2,6,48,37,247,0.908425,1.612841,-15.601192,33.97369367,-117.7738441,347.105373,0.082582,-0.473069,-0.011029
40199,697400000,2021,1,2,6,48,37,247,0.907836,1.613283,-15.600057,33.97369366,-117.7738441,347.105346,0.082673,-0.473321,-0.011074
40200,699900000,2021,1,2,6,48,37,247,0.907526,1.613541,-15.599422,33.97369365,-117.7738441,347.105318,0.082721,-0.473513,-0.011151
40201,702400000,2021,1,2,6,48,37,247,0.907094,1.613783,-15.598945,33.97369364,-117.7738441,347.10529,0.082769,-0.473736,-0.011213
40202,704900000,2021,1,2,6,48,37,247,0.906955,1.613775,-15.598525,33.97369363,-117.7738441,347.105262,0.082832,-0.473896,-0.011217
40203,707400000,2021,1,2,6,48,37,247,0.907267,1.613674,-15.598571,33.97369362,-117.773844,347.105234,0.082905,-0.474083,-0.011283
40204,709900000,2021,1,2,6,48,37,247,0.907637,1.613503,-15.598309,33.97369361,-117.773844,347.100499,0.083013,-0.474286,-0.013059
40205,712400000,2021,1,2,6,48,37,247,0.907943,1.613496,-15.598536,33.9736936,-117.773844,347.100466,0.083063,-0.474463,-0.01304
40206,714900000,2021,1,2,6,48,37,247,0.907844,1.613515,-15.598022,33.97369359,-117.773844,347.100434,0.08317,-0.474694,-0.012979
40207,717400000,2021,1,2,6,48,37,247,0.908148,1.613582,-15.596443,33.97369358,-117.773844,347.100401,0.083283,-0.474885,-0.01297
40208,719900000,2021,1,2,6,48,37,247,0.908083,1.6136,-15.596285,33.97369357,-117.773844,347.100369,0.083308,-0.475063,-0.013008
40209,722400000,2021,1,2,6,48,37,247,0.908089,1.613981,-15.596607,33.97369356,-117.773844,347.100336,0.083356,-0.475276,-0.013005
40210,724900000,2021,1,2,6,48,37,247,0.908492,1.614263,-15.596784,33.97369355,-117.773844,347.100304,0.083388,-0.475461,-0.012964
40211,727400000,2021,1,2,6,48,37,247,0.908418,1.614958,-15.596237,33.97369354,-117.773844,347.100271,0.083476,-0.475706,-0.012922
40212,729900000,2021,1,2,6,48,37,247,0.908234,1.615892,-15.595905,33.97369352,-117.773844,347.100631,0.083512,-0.475951,-0.012748
40213,732400000,2021,1,2,6,48,37,247,0.908007,1.616302,-15.596402,33.97369351,-117.773844,347.100599,0.08357,-0.476203,-0.012732
40214,734900000,2021,1,2,6,48,37,247,0.907844,1.617153,-15.596333,33.9736935,-117.773844,347.100567,0.083523,-0.476404,-0.012738
40215,737400000,2021,1,2,6,48,37,247,0.908312,1.617403,-15.595562,33.97369349,-117.773844,347.100535,0.083575,-0.476606,-0.012758
40216,739900000,2021,1,2,6,48,37,247,0.908684,1.618128,-15.594997,33.97369348,-117.773844,347.100503,0.083599,-0.476779,-0.012792
40217,742400000,2021,1,2,6,48,37,247,0.908901,1.61785,-15.595611,33.97369347,-117.773844,347.100471,0.083626,-0.47707,-0.012795
40218,744900000,2021,1,2,6,48,37,247,0.90891,1.618194,-15.595842,33.97369346,-117.773844,347.100439,0.08362,-0.477226,-0.012831
40219,747400000,2021,1,2,6,48,37,247,0.908979,1.618214,-15.595445,33.97369345,-117.773844,347.100407,0.083542,-0.47736,-0.012771
40220,749900000,2021,1,2,6,48,37,247,0.909249,1.618548,-15.595177,33.97369344,-117.773844,347.100767,0.083503,-0.477613,-0.012662
40221,752400000,2021,1,2,6,48,37,247,0.909882,1.618062,-15.595685,33.97369343,-117.773844,347.100736,0.083493,-0.477927,-0.012626
40222,754900000,2021,1,2,6,48,37,247,0.909536,1.617778,-15.595926,33.97369342,-117.773844,347.100704,0.083504,-0.478082,-0.012603
40223,757400000,2021,1,2,6,48,37,247,0.909662,1.617206,-15.595199,33.97369341,-117.773844,347.100673,0.083477,-0.478293,-0.012644
40224,759900000,2021,1,2,6,48,37,247,0.909328,1.616577,-15.594929,33.9736934,-117.773844,347.100641,0.083469,-0.478551,-0.012683
40225,762400000,2021,1,2,6,48,37,247,0.909238,1.617248,-15.594934,33.97369338,-117.773844,347.100609,0.083461,-0.47884,-0.012681
40226,764900000,2021,1,2,6,48,37,247,0.908917,1.617329,-15.594469,33.97369337,-117.773844,347.100577,0.083506,-0.479064,-0.012705
40227,767400000,2021,1,2,6,48,37,247,0.908446,1.617964,-15.593814,33.97369336,-117.773844,347.100546,0.083456,-0.479276,-0.012742
40228,769900000,2021,1,2,6,48,37,247,0.909491,1.618973,-15.594358,33.97369335,-117.773844,347.100907,0.083466,-0.479429,-0.012581
40229,772400000,2021,1,2,6,48,37,247,0.90939,1.619684,-15.59413,33.97369334,-117.773844,347.100875,0.08345,-0.47958,-0.012587
40230,774900000,2021,1,2,6,48,37,247,0.909773,1.619706,-15.593307,33.97369333,-117.773844,347.100844,0.083412,-0.479716,-0.012565
40231,777400000,2021,1,2,6,48,37,247,0.91042,1.618877,-15.592639,33.97369332,-117.773844,347.100813,0.083391,-0.47987,-0.01259
40232,779900000,2021,1,2,6,48,37,247,0.910601,1.6187,-15.592572,33.97369331,-117.773844,347.100781,0.083486,-0.480093,-0.01257
40233,782400000,2021,1,2,6,48,37,247,0.910755,1.618995,-15.592243,33.9736933,-117.773844,347.10075,0.083544,-0.480249,-0.012589
40234,784900000,2021,1,2,6,48,37,247,0.911278,1.618115,-15.591775,33.97369329,-117.773844,347.100718,0.083625,-0.480459,-0.012647
40235,787400000,2021,1,2,6,48,37,247,0.911738,1.617945,-15.591185,33.97369328,-117.773844,347.100686,0.083631,-0.480668,-0.012705
40236,789900000,2021,1,2,6,48,37,247,0.911922,1.617544,-15.590865,33.97369327,-117.773844,347.101049,0.083635,-0.480816,-0.012522
40237,792400000,2021,1,2,6,48,37,247,0.911421,1.617096,-15.590281,33.97369326,-117.773844,347.101017,0.083739,-0.481002,-0.012551
40238,794900000,2021,1,2,6,48,37,247,0.911763,1.616978,-15.589995,33.97369324,-117.773844,347.100986,0.083812,-0.481147,-0.012517
40239,797400000,2021,1,2,6,48,37,247,0.911809,1.61661,-15.5888,33.97369323,-117.773844,347.100955,0.083887,-0.481325,-0.012522
40240,799900000,2021,1,2,6,48,37,247,0.912384,1.616568,-15.588595,33.97369322,-117.773844,347.100923,0.083998,-0.481582,-0.012552
40241,750000000,2021,1,2,6,48,37,247,,,,,,0,,,
40242,802400000,2021,1,2,6,48,37,247,0.912525,1.616484,-15.588297,33.97369321,-117.773844,347.100892,0.084097,-0.481746,-0.012565
40243,804900000,2021,1,2,6,48,37,247,0.912878,1.616042,-15.58844,33.9736932,-117.773844,347.10086,0.084213,-0.48204,-0.012608
40244,807400000,2021,1,2,6,48,37,247,0.913639,1.616014,-15.588423,33.97369319,-117.773844,347.100829,0.084297,-0.482209,-0.012632
40245,809900000,2021,1,2,6,48,37,247,0.913569,1.616324,-15.587651,33.97369318,-117.773844,347.096003,0.084411,-0.482424,-0.014588
40246,812400000,2021,1,2,6,48,37,247,0.91361,1.61668,-15.588037,33.97369317,-117.773844,347.095967,0.084422,-0.482656,-0.014581
40247,814900000,2021,1,2,6,48,37,247,0.913654,1.616006,-15.58732,33.97369316,-117.773844,347.09593,0.084474,-0.482867,-0.014681
40248,817400000,2021,1,2,6,48,37,247,0.913994,1.61592,-15.587991,33.97369315,-117.7738439,347.095893,0.08453,-0.483103,-0.014751
40249,819900000,2021,1,2,6,48,37,247,0.889271,1.604425,-15.531946,33.97369447,-117.7738441,347.114259,0.080694,-0.445954,-0.011214
40250,822400000,2021,1,2,6,48,37,247,0.88891,1.603962,-15.531478,33.97369446,-117.7738441,347.114231,0.080725,-0.446129,-0.011215
40251,824900000,2021,1,2,6,48,37,247,0.888833,1.60387,-15.531396,33.97369445,-117.7738441,347.114203,0.080731,-0.446265,-0.011209
40252,827400000,2021,1,2,6,48,37,247,0.888489,1.604235,-15.531149,33.97369444,-117.7738441,347.114175,0.080774,-0.446519,-0.011231
40253,829900000,2021,1,2,6,48,37,247,0.888907,1.604719,-15.531547,33.97369443,-117.7738441,347.11442,0.080756,-0.446746,-0.011062
40254,832400000,2021,1,2,6,48,37,247,0.888581,1.604838,-15.530807,33.97369442,-117.7738441,347.114392,0.080781,-0.447028,-0.011031
40255,834900000,2021,1,2,6,48,37,247,0.888834,1.606025,-15.531164,33.97369441,-117.773844,347.114365,0.080786,-0.447252,-0.011031
40256,837400000,2021,1,2,6,48,37,247,0.88962,1.606552,-15.531711,33.9736944,-117.773844,347.114337,0.080788,-0.44748,-0.010975
40257,839900000,2021,1,2,6,48,37,247,0.89013,1.606393,-15.530881,33.97369439,-117.773844,347.11431,0.080834,-0.44774,-0.010887
40258,842400000,2021,1,2,6,48,37,247,0.890053,1.606987,-15.530708,33.97369438,-117.773844,347.114283,0.080867,-0.448025,-0.010875
40259,844900000,2021,1,2,6,48,37,247,0.890101,1.606946,-15.530032,33.97369437,-117.773844,347.114256,0.080787,-0.448229,-0.010896
40260,847400000,2021,1,2,6,48,37,247,0.889847,1.607442,-15.530022,33.97369436,-117.773844,347.114228,0.080772,-0.448434,-0.011002
40261,849900000,2021,1,2,6,48,37,247,0.889717,1.607347,-15.530151,33.97369435,-117.773844,347.114474,0.080769,-0.44873,-0.010921
40262,852400000,2021,1,2,6,48,37,247,0.889696,1.607425,-15.529909,33.97369434,-117.773844,347.114447,0.080778,-0.449039,-0.010946
40263,854900000,2021,1,2,6,48,37,247,0.889543,1.607692,-15.529707,33.97369433,-117.773844,347.114419,0.080805,-0.449273,-0.010997
40264,857400000,2021,1,2,6,48,37,247,0.889991,1.607242,-15.529574,33.97369432,-117.773844,347.114392,0.080816,-0.449518,-0.01104
40265,859900000,2021,1,2,6,48,37,247,0.889969,1.607044,-15.529531,33.97369431,-117.773844,347.114364,0.080816,-0.449664,-0.011054
40266,862400000,2021,1,2,6,48,37,247,0.890084,1.606894,-15.529123,33.9736943,-117.773844,347.114337,0.080757,-0.449765,-0.011084
40267,864900000,2021,1,2,6,48,37,247,0.890294,1.606718,-15.529185,33.97369429,-117.773844,347.114309,0.080704,-0.450005,-0.011061
40268,867400000,2021,1,2,6,48,37,247,0.890361,1.606196,-15.52878,33.97369428,-117.773844,347.114281,0.080711,-0.450301,-0.011132
40269,869900000,2021,1,2,6,48,37,247,0.890809,1.606164,-15.527566,33.97369427,-117.773844,347.119355,0.080719,-0.450543,-0.009421
40270,872400000,2021,1,2,6,48,37,247,0.891624,1.606636,-15.52655,33.97369426,-117.773844,347.119331,0.08076,-0.450766,-0.009412
40271,874900000,2021,1,2,6,48,37,247,0.891755,1.60727,-15.526086,33.97369425,-117.773844,347.119308,0.080798,-0.451032,-0.009433
40272,877400000,2021,1,2,6,48,37,247,0.891476,1.607228,-15.525445,33.97369424,-117.773844,347.119284,0.080823,-0.451266,-0.009495
40273,879900000,2021,1,2,6,48,37,247,0.891828,1.607105,-15.525004,33.97369423,-117.773844,347.11926,0.080889,-0.451482,-0.009562
40274,882400000,2021,1,2,6,48,37,247,0.89167,1.607884,-15.524686,33.97369422,-117.773844,347.119236,0.080932,-0.45161,-0.009515
40275,884900000,2021,1,2,6,48,37,247,0.891564,1.608266,-15.524369,33.97369421,-117.773844,347.119212,0.081006,-0.451829,-0.009578
40276,887400000,2021,1,2,6,48,37,247,0.891535,1.608663,-15.524261,33.9736942,-117.773844,347.119188,0.081013,-0.452057,-0.009678
40277,889900000,2021,1,2,6,48,37,247,0.891705,1.608578,-15.524711,33.97369419,-117.773844,347.119394,0.081141,-0.452309,-0.009612
40278,892400000,2021,1,2,6,48,37,247,0.891312,1.609089,-15.524183,33.97369418,-117.773844,347.11937,0.081237,-0.452479,-0.009655
40279,894900000,2021,1,2,6,48,37,247,0.891456,1.608823,-15.523481,33.97369417,-117.773844,347.119345,0.08134,-0.452627,-0.009702
40280,897400000,2021,1,2,6,48,37,247,0.891599,1.608361,-15.52326,33.97369416,-117.773844,347.119321,0.081437,-0.452774,-0.00968
40281,899900000,2021,1,2,6,48,37,247,0.890583,1.608245,-15.523193,33.97369415,-117.773844,347.119297,0.081474,-0.452989,-0.009761
40282,902400000,2021,1,2,6,48,37,247,0.890801,1.608378,-15.523738,33.97369414,-117.773844,347.119272,0.081516,-0.453128,-0.009787
40283,904900000,2021,1,2,6,48,37,247,0.89143,1.608328,-15.522846,33.97369413,-117.773844,347.119248,0.0816,-0.453275,-0.009768
40284,907400000,2021,1,2,6,48,37,247,0.891697,1.608001,-15.522628,33.97369412,-117.773844,347.119224,0.081661,-0.453464,-0.009758
40285,909900000,2021,1,2,6,48,37,247,0.891593,1.608453,-15.522198,33.97369411,-117.773844,347.11456,0.08172,-0.453714,-0.011432
40286,912400000,2021,1,2,6,48,37,247,0.891408,1.608951,-15.52146,33.9736941,-117.773844,347.114532,0.081807,-0.453916,-0.011328
40287,914900000,2021,1,2,6,48,37,247,0.891567,1.609552,-15.52071,33.97369409,-117.773844,347.114504,0.081919,-0.454107,-0.011319
40288,917400000,2021,1,2,6,48,37,247,0.891902,1.610527,-15.520852,33.97369408,-117.773844,347.114475,0.081963,-0.454227,-0.011337
40289,919900000,2021,1,2,6,48,37,247,0.891987,1.610696,-15.520992,33.97369407,-117.773844,347.114447,0.082041,-0.454445,-0.011366
40290,922400000,2021,1,2,6,48,37,247,0.892421,1.610653,-15.520842,33.97369406,-117.773844,347.114419,0.082097,-0.454709,-0.011327
40291,924900000,2021,1,2,6,48,37,247,0.892283,1.610774,-15.520528,33.97369405,-117.773844,347.114391,0.082147,-0.454939,-0.011317
40292,927400000,2021,1,2,6,48,37,247,0.892536,1.610696,-15.519729,33.97369404,-117.773844,347.114362,0.082207,-0.455229,-0.011321
40293,929900000,2021,1,2,6,48,37,247,0.892447,1.611341,-15.519037,33.97369403,-117.773844,347.107289,0.082278,-0.455507,-0.01376
40294,932400000,2021,1,2,6,48,37,247,0.892501,1.61215,-15.519544,33.97369402,-117.773844,347.107255,0.082317,-0.45579,-0.013774
40295,934900000,2021,1,2,6,48,37,247,0.892605,1.612115,-15.519119,33.97369401,-117.773844,347.10722,0.082343,-0.455937,-0.0138
40296,937400000,2021,1,2,6,48,37,247,0.892654,1.612305,-15.51862,33.973694,-117.773844,347.107185,0.082319,-0.456141,-0.013882
40297,939900000,2021,1,2,6,48,37,247,0.892858,1.613215,-15.517999,33.97369399,-117.773844,347.107151,0.082329,-0.456327,-0.013901
40298,942400000,2021,1,2,6,48,37,247,0.892734,1.613679,-15.517674,33.97369398,-117.773844,347.107116,0.082403,-0.456641,-0.013913
40299,944900000,2021,1,2,6,48,37,247,0.8929,1.614066,-15.517089,33.97369397,-117.773844,347.107081,0.082417,-0.456883,-0.013994
40300,947400000,2021,1,2,6,48,37,247,0.891993,1.614561,-15.51762,33.97369395,-117.7738439,347.107046,0.082446,-0.457123,-0.014004
40301,949900000,2021,1,2,6,48,37,247,0.891751,1.614778,-15.517987,33.97369394,-117.7738439,347.102447,0.082456,-0.457394,-0.015643
40302,952400000,2021,1,2,6,48,37,247,0.89219,1.614279,-15.517262,33.97369393,-117.7738439,347.102408,0.082437,-0.45752,-0.015637
40303,954900000,2021,1,2,6,48,37,247,0.892198,1.613894,-15.516618,33.97369392,-117.7738439,347.102369,0.082446,-0.457691,-0.015606
40304,957400000,2021,1,2,6,48,37,247,0.89293,1.613099,-15.516331,33.97369391,-117.7738439,347.10233,0.082407,-0.457904,-0.015583
40305,959900000,2021,1,2,6,48,37,247,0.892731,1.613196,-15.516551,33.9736939,-117.7738439,347.102291,0.0824,-0.458117,-0.015594
40306,962400000,2021,1,2,6,48,37,247,0.892877,1.61254,-15.515415,33.97369389,-117.7738439,347.102252,0.082392,-0.45831,-0.015654
40307,964900000,2021,1,2,6,48,37,247,0.893166,1.612193,-15.515055,33.97369388,-117.7738439,347.102212,0.082413,-0.458521,-0.015803
40308,967400000,2021,1,2,6,48,37,247,0.892687,1.612353,-15.514246,33.97369387,-117.7738439,347.102173,0.082424,-0.45872,-0.015841
40309,969900000,2021,1,2,6,48,37,247,0.893233,1.612938,-15.514259,33.97369386,-117.7738439,347.102529,0.082438,-0.458912,-0.015719
40310,972400000,2021,1,2,6,48,37,247,0.893082,1.612698,-15.513641,33.97369385,-117.7738439,347.10249,0.082403,-0.459174,-0.015791
40311,974900000,2021,1,2,6,48,37,247,0.893415,1.613047,-15.513283,33.97369384,-117.7738439,347.10245,0.082448,-0.459402,-0.015873
40312,977400000,2021,1,2,6,48,37,247,0.893761,1.613226,-15.512596,33.97369383,-117.7738439,347.10241,0.082417,-0.459596,-0.015917
40313,979900000,2021,1,2,6,48,37,247,0.894324,1.613448,-15.512559,33.97369382,-117.7738439,347.10237,0.082386,-0.459674,-0.016004
40314,982400000,2021,1,2,6,48,37,247,0.894241,1.613409,-15.512067,33.97369381,-117.7738439,347.10233,0.082436,-0.459785,-0.015973
40315,984900000,2021,1,2,6,48,37,247,0.894287,1.612498,-15.511622,33.9736938,-117.7738439,347.10229,0.082459,-0.460012,-0.016019
40316,987400000,2021,1,2,6,48,37,247,0.894973,1.61181,-15.511626,33.97369379,-117.7738439,347.10225,0.082521,-0.46017,-0.016039
40317,989900000,2021,1,2,6,48,37,247,0.894529,1.611134,-15.511684,33.97369378,-117.7738439,347.088596,0.082557,-0.460351,-0.020991
40318,992400000,2021,1,2,6,48,37,247,0.895454,1.610038,-15.511211,33.97369377,-117.7738439,347.088544,0.08259,-0.460438,-0.020921
40319,994900000,2021,1,2,6,48,37,247,0.89582,1.60907,-15.511348,33.97369376,-117.7738439,347.088492,0.082542,-0.460646,-0.020905
40320,997400000,2021,1,2,6,48,37,247,0.895744,1.609325,-15.511022,33.97369375,-117.7738439,347.088439,0.082603,-0.460809,-0.020875
40321,999900000,2021,1,2,6,48,37,247,0.895686,1.609412,-15.510782,33.97369374,-117.7738439,347.088388,0.082625,-0.460963,-0.020829
40322,2400000,2021,1,2,6,48,38,247,0.896463,1.609867,-15.510162,33.97369373,-117.7738439,347.088336,0.082663,-0.461186,-0.020876
40323,4900000,2021,1,2,6,48,38,247,0.897634,1.609598,-15.509804,33.97369372,-117.7738439,347.088283,0.082726,-0.461406,-0.0209
40324,7400000,2021,1,2,6,48,38,247,0.897539,1.610344,-15.509567,33.97369371,-117.7738439,347.088231,0.082756,-0.46166,-0.020944
40325,9900000,2021,1,2,6,48,38,247,0.897804,1.610426,-15.508607,33.9736937,-117.7738439,347.081251,0.082766,-0.46187,-0.023517
40326,12400000,2021,1,2,6,48,38,247,0.897324,1.610103,-15.508699,33.97369369,-117.7738439,347.081192,0.082888,-0.462067,-0.023524
40327,14900000,2021,1,2,6,48,38,247,0.897207,1.609611,-15.507736,33.97369368,-117.7738439,347.081133,0.08296,-0.462262,-0.023495
40328,17400000,2021,1,2,6,48,38,247,0.897285,1.610055,-15.507325,33.97369367,-117.7738439,347.081074,0.083045,-0.462588,-0.023504
40329,19900000,2021,1,2,6,48,38,247,0.897583,1.610021,-15.506829,33.97369365,-117.7738439,347.081016,0.083105,-0.462808,-0.023548
40330,22400000,2021,1,2,6,48,38,247,0.89701,1.609764,-15.506353,33.97369364,-117.7738439,347.080957,0.083133,-0.463119,-0.023475
40331,24900000,2021,1,2,6,48,38,247,0.89666,1.609762,-15.505894,33.97369363,-117.7738439,347.080898,0.083252,-0.46344,-0.023466
40332,27400000,2021,1,2,6,48,38,247,0.896229,1.610087,-15.505532,33.97369362,-117.7738439,347.080839,0.08335,-0.463688,-0.023526
40333,29900000,2021,1,2,6,48,38,247,0.896711,1.609635,-15.504906,33.97369361,-117.7738439,347.078899,0.083367,-0.463884,-0.02412
40334,32400000,2021,1,2,6,48,38,247,0.89646,1.60945,-15.505486,33.9736936,-117.7738439,347.078838,0.083375,-0.464131,-0.024144
40335,34900000,2021,1,2,6,48,38,247,0.896584,1.60969,-15.505182,33.97369359,-117.7738439,347.078778,0.083392,-0.464418,-0.024135
40336,37400000,2021,1,2,6,48,38,247,0.896574,1.609827,-15.505139,33.97369358,-117.7738439,347.078718,0.083438,-0.464678,-0.024096
40337,39900000,2021,1,2,6,48,38,247,0.897248,1.610495,-15.504807,33.97369357,-117.7738439,347.078657,0.083473,-0.464941,-0.024091
40338,42400000,2021,1,2,6,48,38,247,0.89786,1.610165,-15.504318,33.97369356,-117.7738439,347.078597,0.083504,-0.465292,-0.024103
40339,44900000,2021,1,2,6,48,38,247,0.897481,1.610216,-15.504202,33.97369355,-117.7738439,347.078537,0.083521,-0.465575,-0.024162
40340,47400000,2021,1,2,6,48,38,247,0.897771,1.610617,-15.503396,33.97369354,-117.7738439,347.078476,0.083498,-0.465816,-0.024272
40341,49900000,2021,1,2,6,48,38,247,0.898292,1.610589,-15.503057,33.97369353,-117.7738439,347.079051,0.083532,-0.466051,-0.024022
40342,0,2021,1,2,6,48,38,247,,,,,,0,,,
40343,52400000,2021,1,2,6,48,38,247,0.898166,1.610021,-15.502737,33.97369352,-117.7738439,347.078991,0.083505,-0.466185,-0.024023
40344,54900000,2021,1,2,6,48,38,247,0.89818,1.609998,-15.502016,33.97369351,-117.7738439,347.07893,0.083548,-0.466408,-0.024047
40345,57400000,2021,1,2,6,48,38,247,0.89817,1.610279,-15.501615,33.9736935,-117.7738439,347.07887,0.083516,-0.466588,-0.024069
40346,59900000,2021,1,2,6,48,38,247,0.897896,1.610912,-15.501616,33.97369349,-117.7738438,347.07881,0.083529,-0.46679,-0.024122
40347,62400000,2021,1,2,6,48,38,247,0.898386,1.61113,-15.500973,33.97369348,-117.7738438,347.07875,0.083551,-0.467002,-0.024146
40348,64900000,2021,1,2,6,48,38,247,0.898473,1.611936,-15.500998,33.97369347,-117.7738438,347.078689,0.083521,-0.467248,-0.02415
40349,67400000,2021,1,2,6,48,38,247,0.898539,1.611626,-15.500785,33.97369346,-117.7738438,347.078629,0.083552,-0.467452,-0.024113
40350,69900000,2021,1,2,6,48,38,247,0.886729,1.60639,-15.450969,33.97369411,-117.7738438,347.09753,0.083299,-0.449385,-0.019533
40351,72400000,2021,1,2,6,48,38,247,0.887545,1.606799,-15.451131,33.9736941,-117.7738438,347.097481,0.083289,-0.44954,-0.019535
40352,74900000,2021,1,2,6,48,38,247,0.887693,1.606677,-15.4508,33.97369409,-117.7738438,347.097433,0.083257,-0.44974,-0.01958
40353,77400000,2021,1,2,6,48,38,247,0.887568,1.606681,-15.450969,33.97369408,-117.7738438,347.097384,0.083282,-0.449963,-0.01965
40354,79900000,2021,1,2,6,48,38,247,0.888049,1.606779,-15.450679,33.97369407,-117.7738438,347.097794,0.083301,-0.450236,-0.019539
40355,82400000,2021,1,2,6,48,38,247,0.88835,1.606525,-15.450445,33.97369406,-117.7738438,347.097745,0.083351,-0.450403,-0.019577
40356,84900000,2021,1,2,6,48,38,247,0.888895,1.606665,-15.450402,33.97369405,-117.7738438,347.097696,0.083386,-0.450623,-0.019578
40357,87400000,2021,1,2,6,48,38,247,0.889617,1.605948,-15.450364,33.97369404,-117.7738438,347.097647,0.083465,-0.450852,-0.019585
40358,89900000,2021,1,2,6,48,38,247,0.890365,1.605127,-15.450437,33.97369403,-117.7738438,347.100453,0.083486,-0.450982,-0.01857
40359,92400000,2021,1,2,6,48,38,247,0.890261,1.604513,-15.449655,33.97369402,-117.7738438,347.100407,0.083531,-0.451122,-0.018547
40360,94900000,2021,1,2,6,48,38,247,0.890762,1.603974,-15.449936,33.97369401,-117.7738438,347.100361,0.083532,-0.451266,-0.018511
40361,97400000,2021,1,2,6,48,38,247,0.890981,1.603227,-15.44997,33.973694,-117.7738438,347.100314,0.083569,-0.451508,-0.018464
40362,99900000,2021,1,2,6,48,38,247,0.891585,1.603233,-15.44959,33.97369399,-117.7738438,347.100268,0.08368,-0.451677,-0.018481
40363,102400000,2021,1,2,6,48,38,247,0.891954,1.603178,-15.449746,33.97369398,-117.7738438,347.100222,0.083761,-0.451852,-0.018501
40364,104900000,2021,1,2,6,48,38,247,0.891068,1.603019,-15.449692,33.97369397,-117.7738438,347.100176,0.08381,-0.452129,-0.018516
40365,107400000,2021,1,2,6,48,38,247,0.890796,1.602797,-15.449849,33.97369396,-117.7738438,347.100129,0.083865,-0.452282,-0.018565
40366,109900000,2021,1,2,6,48,38,247,0.890436,1.603017,-15.449638,33.97369395,-117.7738438,347.102927,0.083898,-0.452437,-0.017615
40367,112400000,2021,1,2,6,48,38,247,0.890886,1.602927,-15.449014,33.97369394,-117.7738438,347.102883,0.083905,-0.452637,-0.017627
40368,114900000,2021,1,2,6,48,38,247,0.892355,1.602691,-15.448778,33.97369393,-117.7738438,347.102839,0.083933,-0.452877,-0.01761
40369,117400000,2021,1,2,6,48,38,247,0.892234,1.603099,-15.448374,33.97369392,-117.7738437,347.102795,0.083986,-0.453139,-0.017647
40370,119900000,2021,1,2,6,48,38,247,0.891741,1.603387,-15.447984,33.97369391,-117.7738437,347.10275,0.084049,-0.453362,-0.017683
40371,122400000,2021,1,2,6,48,38,247,0.891576,1.603514,-15.448316,33.9736939,-117.7738437,347.102706,0.084073,-0.453657,-0.017701
40372,124900000,2021,1,2,6,48,38,247,0.891391,1.603861,-15.447657,33.97369388,-117.7738437,347.102662,0.084114,-0.453947,-0.017735
40373,127400000,2021,1,2,6,48,38,247,0.891441,1.603785,-15.446985,33.97369387,-117.7738437,347.102617,0.084127,-0.454114,-0.017738
40374,129900000,2021,1,2,6,48,38,247,0.892395,1.603534,-15.446616,33.97369386,-117.7738437,347.102987,0.084171,-0.454355,-0.017597
40375,132400000,2021,1,2,6,48,38,247,0.892605,1.604207,-15.446288,33.97369385,-117.7738437,347.102942,0.084151,-0.454496,-0.017652
40376,134900000,2021,1,2,6,48,38,247,0.893143,1.604527,-15.446145,33.97369384,-117.7738437,347.102898,0.084183,-0.454732,-0.017733
40377,137400000,2021,1,2,6,48,38,247,0.893197,1.605052,-15.44562,33.97369383,-117.7738437,347.102854,0.08421,-0.45501,-0.017857
40378,139900000,2021,1,2,6,48,38,247,0.89342,1.605233,-15.445091,33.97369382,-117.7738437,347.102809,0.084226,-0.455256,-0.017881
40379,142400000,2021,1,2,6,48,38,247,0.893911,1.604816,-15.444767,33.97369381,-117.7738437,347.102764,0.084275,-0.45549,-0.017925
40380,144900000,2021,1,2,6,48,38,247,0.89332,1.60518,-15.444598,33.9736938,-117.7738437,347.102719,0.084278,-0.45569,-0.01797
40381,147400000,2021,1,2,6,48,38,247,0.893077,1.604764,-15.444188,33.97369379,-117.7738437,347.102674,0.084281,-0.455907,-0.017982
40382,149900000,2021,1,2,6,48,38,247,0.892911,1.605134,-15.443771,33.97369378,-117.7738437,347.110361,0.084253,-0.456096,-0.0153
40383,152400000,2021,1,2,6,48,38,247,0.892987,1.605368,-15.443616,33.97369377,-117.7738437,347.110323,0.084279,-0.456264,-0.015262
40384,154900000,2021,1,2,6,48,38,247,0.892713,1.605003,-15.44266,33.97369376,-117.7738437,347.110284,0.08429,-0.456422,-0.015345
40385,157400000,2021,1,2,6,48,38,247,0.892096,1.604864,-15.443008,33.97369375,-117.7738437,347.110246,0.084286,-0.456624,-0.015329
40386,159900000,2021,1,2,6,48,38,247,0.892229,1.605058,-15.443069,33.97369374,-117.7738437,347.110208,0.084204,-0.456727,-0.015325
40387,162400000,2021,1,2,6,48,38,247,0.892205,1.605269,-15.441991,33.97369373,-117.7738437,347.11017,0.084177,-0.456832,-0.015246
40388,164900000,2021,1,2,6,48,38,247,0.891733,1.605779,-15.441406,33.97369372,-117.7738437,347.110132,0.084197,-0.457045,-0.015243
40389,167400000,2021,1,2,6,48,38,247,0.891536,1.606044,-15.441525,33.97369371,-117.7738437,347.110094,0.08423,-0.457223,-0.015172
40390,169900000,2021,1,2,6,48,38,247,0.892285,1.606516,-15.441246,33.9736937,-117.7738437,347.098973,0.084212,-0.457383,-0.019183
40391,172400000,2021,1,2,6,48,38,247,0.892237,1.606616,-15.440432,33.97369369,-117.7738437,347.098925,0.084228,-0.457628,-0.0192
40392,174900000,2021,1,2,6,48,38,247,0.892984,1.606533,-15.439619,33.97369368,-117.7738437,347.098877,0.084296,-0.457774,-0.019192
40393,177400000,2021,1,2,6,48,38,247,0.893304,1.607277,-15.43955,33.97369367,-117.7738437,347.098829,0.084298,-0.457898,-0.019247
40394,179900000,2021,1,2,6,48,38,247,0.892141,1.606928,-15.440036,33.97369366,-117.7738437,347.098781,0.084265,-0.458017,-0.01921
40395,182400000,2021,1,2,6,48,38,247,0.89268,1.606224,-15.439801,33.97369365,-117.7738437,347.098733,0.084288,-0.458143,-0.019175
40396,184900000,2021,1,2,6,48,38,247,0.89354,1.605868,-15.439615,33.97369364,-117.7738437,347.098685,0.084264,-0.458316,-0.019193
40397,187400000,2021,1,2,6,48,38,247,0.894285,1.606722,-15.439878,33.97369363,-117.7738437,347.098637,0.08429,-0.458472,-0.01917
40398,189900000,2021,1,2,6,48,38,247,0.894372,1.606137,-15.439466,33.97369362,-117.7738437,347.099046,0.084341,-0.458687,-0.019037
40399,192400000,2021,1,2,6,48,38,247,0.894146,1.605505,-15.438334,33.97369361,-117.7738437,347.098999,0.084351,-0.458799,-0.01902
40400,194900000,2021,1,2,6,48,38,247,0.893605,1.605075,-15.437802,33.9736936,-117.7738437,347.098951,0.084392,-0.459079,-0.019034
40401,197400000,2021,1,2,6,48,38,247,0.893773,1.604652,-15.437312,33.97369359,-117.7738437,347.098904,0.084497,-0.459313,-0.019041
40402,199900000,2021,1,2,6,48,38,247,0.893602,1.604353,-15.436878,33.97369358,-117.7738437,347.098856,0.084534,-0.459551,-0.018998
40403,202400000,2021,1,2,6,48,38,247,0.894098,1.603361,-15.436709,33.97369357,-117.7738437,347.098809,0.0846,-0.45977,-0.018985
40404,204900000,2021,1,2,6,48,38,247,0.895111,1.603248,-15.436465,33.97369356,-117.7738437,347.098761,0.084623,-0.459912,-0.019037
40405,207400000,2021,1,2,6,48,38,247,0.894393,1.602957,-15.435725,33.97369355,-117.7738437,347.098714,0.084662,-0.460105,-0.018962
40406,209900000,2021,1,2,6,48,38,247,0.894389,1.603575,-15.436182,33.97369354,-117.7738437,347.094169,0.08473,-0.460341,-0.020614
40407,212400000,2021,1,2,6,48,38,247,0.894405,1.603151,-15.436501,33.97369353,-117.7738437,347.094117,0.084802,-0.460639,-0.020558
40408,214900000,2021,1,2,6,48,38,247,0.894,1.603788,-15.436338,33.97369351,-117.7738437,347.094066,0.084847,-0.460911,-0.020644
40409,217400000,2021,1,2,6,48,38,247,0.893692,1.603551,-15.435845,33.9736935,-117.7738437,347.094014,0.08487,-0.461125,-0.020698
40410,219900000,2021,1,2,6,48,38,247,0.89359,1.603227,-15.435833,33.97369349,-117.7738437,347.093963,0.08492,-0.461408,-0.020724
40411,222400000,2021,1,2,6,48,38,247,0.893406,1.603412,-15.435563,33.97369348,-117.7738437,347.093911,0.084955,-0.461661,-0.020791
40412,224900000,2021,1,2,6,48,38,247,0.893503,1.603087,-15.436192,33.97369347,-117.7738437,347.093859,0.084947,-0.461854,-0.020866
40413,227400000,2021,1,2,6,48,38,247,0.893656,1.603088,-15.43536,33.97369346,-117.7738436,347.093807,0.085016,-0.462134,-0.02084
40414,229900000,2021,1,2,6,48,38,247,0.893111,1.602322,-15.435483,33.97369345,-117.7738436,347.091785,0.085062,-0.462338,-0.021571
40415,232400000,2021,1,2,6,48,38,247,0.892718,1.602361,-15.435236,33.97369344,-117.7738436,347.091731,0.085147,-0.462683,-0.021557
40416,234900000,2021,1,2,6,48,38,247,0.893504,1.603321,-15.43496,33.97369343,-117.7738436,347.091677,0.085172,-0.463002,-0.021576
40417,237400000,2021,1,2,6,48,38,247,0.894088,1.603582,-15.434243,33.97369342,-117.7738436,347.091623,0.085148,-0.463271,-0.0216
40418,239900000,2021,1,2,6,48,38,247,0.894474,1.603569,-15.433844,33.97369341,-117.7738436,347.091569,0.085188,-0.463502,-0.021613
40419,242400000,2021,1,2,6,48,38,247,0.894764,1.603709,-15.434172,33.9736934,-117.7738436,347.091515,0.085274,-0.463747,-0.021613
40420,244900000,2021,1,2,6,48,38,247,0.894845,1.60418,-15.433705,33.97369339,-117.7738436,347.091461,0.085266,-0.463961,-0.021636
40421,247400000,2021,1,2,6,48,38,247,0.895534,1.604525,-15.433052,33.97369338,-117.7738436,347.091407,0.085294,-0.464253,-0.021711
40422,249900000,2021,1,2,6,48,38,247,0.895698,1.605014,-15.432536,33.97369337,-117.7738436,347.08688,0.085345,-0.464539,-0.023464
40423,252400000,2021,1,2,6,48,38,247,0.895936,1.605375,-15.432316,33.97369336,-117.7738436,347.086821,0.085383,-0.464855,-0.023536
40424,254900000,2021,1,2,6,48,38,247,0.895731,1.60557,-15.432137,33.97369335,-117.7738436,347.086762,0.085414,-0.465072,-0.023563
40425,257400000,2021,1,2,6,48,38,247,0.895494,1.605227,-15.431757,33.97369334,-117.7738436,347.086703,0.085386,-0.465317,-0.023579
40426,259900000,2021,1,2,6,48,38,247,0.895676,1.6046,-15.431863,33.97369333,-117.7738436,347.086644,0.08547,-0.465484,-0.02358
40427,262400000,2021,1,2,6,48,38,247,0.895734,1.605423,-15.431378,33.97369332,-117.7738436,347.086585,0.085523,-0.465653,-0.023535
40428,264900000,2021,1,2,6,48,38,247,0.896012,1.60574,-15.430475,33.97369331,-117.7738436,347.086526,0.085493,-0.465793,-0.023556
40429,267400000,2021,1,2,6,48,38,247,0.896156,1.6058,-15.430241,33.9736933,-117.7738436,347.086467,0.085448,-0.465953,-0.023595
40430,269900000,2021,1,2,6,48,38,247,0.89567,1.606135,-15.429932,33.97369329,-117.7738436,347.086994,0.08556,-0.46613,-0.023335
40431,272400000,2021,1,2,6,48,38,247,0.89514,1.60623,-15.429391,33.97369327,-117.7738436,347.086936,0.085611,-0.466317,-0.023351
40432,274900000,2021,1,2,6,48,38,247,0.895343,1.606647,-15.429696,33.97369326,-117.7738436,347.086877,0.085602,-0.466455,-0.02335
40433,277400000,2021,1,2,6,48,38,247,0.895875,1.606827,-15.430142,33.97369325,-117.7738436,347.086819,0.085611,-0.466654,-0.023384
40434,279900000,2021,1,2,6,48,38,247,0.895922,1.607194,-15.429899,33.97369324,-117.7738436,347.08676,0.085668,-0.466882,-0.023439
40435,282400000,2021,1,2,6,48,38,247,0.895733,1.607431,-15.429149,33.97369323,-117.7738436,347.086702,0.085721,-0.467082,-0.023433
40436,284900000,2021,1,2,6,48,38,247,0.895253,1.607078,-15.428407,33.97369322,-117.7738436,347.086643,0.085726,-0.467241,-0.023409
40437,287400000,2021,1,2,6,48,38,247,0.895606,1.607177,-15.428129,33.97369321,-117.7738436,347.086585,0.085788,-0.467367,-0.023428
40438,289900000,2021,1,2,6,48,38,247,0.895778,1.606882,-15.427782,33.9736932,-117.7738436,347.082052,0.085806,-0.467599,-0.025128
40439,292400000,2021,1,2,6,48,38,247,0.89597,1.60605,-15.427963,33.97369319,-117.7738436,347.08199,0.085836,-0.467837,-0.025126
40440,294900000,2021,1,2,6,48,38,247,0.896433,1.605847,-15.427876,33.97369318,-117.7738436,347.081927,0.085888,-0.468069,-0.025101
40441,297400000,2021,1,2,6,48,38,247,0.895692,1.605156,-15.427808,33.97369317,-117.7738436,347.081864,0.085936,-0.46828,-0.025122
40442,299900000,2021,1,2,6,48,38,247,0.895639,1.604798,-15.428624,33.97369316,-117.7738436,347.081801,0.085982,-0.468563,-0.025091
40443,250000000,2021,1,2,6,48,38,247,,,,,,0,,,
40444,302400000,2021,1,2,6,48,38,247,0.895901,1.60488,-15.428097,33.97369315,-117.7738436,347.081739,0.086075,-0.468803,-0.025079
40445,304900000,2021,1,2,6,48,38,247,0.896545,1.605171,-15.427437,33.97369314,-117.7738436,347.081676,0.086172,-0.469068,-0.025079
40446,307400000,2021,1,2,6,48,38,247,0.897223,1.605566,-15.42624,33.97369313,-117.7738436,347.081613,0.086205,-0.469319,-0.025108
40447,309900000,2021,1,2,6,48,38,247,0.897817,1.605994,-15.425652,33.97369312,-117.7738436,347.08219,0.086283,-0.469558,-0.024903
40448,312400000,2021,1,2,6,48,38,247,0.897338,1.606599,-15.424937,33.97369311,-117.7738436,347.082127,0.086306,-0.469741,-0.025013
40449,314900000,2021,1,2,6,48,38,247,0.896645,1.607026,-15.424771,33.9736931,-117.7738436,347.082065,0.086393,-0.470014,-0.025055
40450,317400000,2021,1,2,6,48,38,247,0.896828,1.60699,-15.42421,33.97369309,-117.7738436,347.082002,0.08646,-0.470287,-0.0251
40451,319900000,2021,1,2,6,48,38,247,0.884447,1.60088,-15.418118,33.97369374,-117.7738436,347.101294,0.083554,-0.452135,-0.019669
40452,322400000,2021,1,2,6,48,38,247,0.884155,1.600136,-15.417641,33.97369373,-117.7738436,347.101245,0.083625,-0.452303,-0.019686
40453,324900000,2021,1,2,6,48,38,247,0.883788,1.599785,-15.417327,33.97369372,-117.7738436,347.101196,0.083647,-0.452546,-0.019638
40454,327400000,2021,1,2,6,48,38,247,0.882767,1.599966,-15.417582,33.97369371,-117.7738436,347.101146,0.083699,-0.452808,-0.019649
40455,329900000,2021,1,2,6,48,38,247,0.882742,1.599316,-15.417542,33.9736937,-117.7738436,347.096699,0.083748,-0.453035,-0.021189
40456,332400000,2021,1,2,6,48,38,247,0.882815,1.59916,-15.417351,33.97369369,-117.7738436,347.096646,0.083843,-0.45327,-0.021189
40457,334900000,2021,1,2,6,48,38,247,0.882805,1.599135,-15.417409,33.97369368,-117.7738436,347.096593,0.083887,-0.453503,-0.021161
40458,337400000,2021,1,2,6,48,38,247,0.882722,1.599371,-15.41702,33.97369367,-117.7738436,347.09654,0.083881,-0.453632,-0.021159
40459,339900000,2021,1,2,6,48,38,247,0.882943,1.599982,-15.416321,33.97369366,-117.7738436,347.096487,0.08393,-0.453898,-0.021181
40460,342400000,2021,1,2,6,48,38,247,0.883122,1.599833,-15.415623,33.97369365,-117.7738436,347.096434,0.083934,-0.454119,-0.021182
40461,344900000,2021,1,2,6,48,38,247,0.883459,1.600427,-15.414948,33.97369364,-117.7738436,347.096381,0.083957,-0.454325,-0.021209
40462,347400000,2021,1,2,6,48,38,247,0.882886,1.601233,-15.415113,33.97369363,-117.7738436,347.096328,0.083959,-0.454597,-0.021241
40463,349900000,2021,1,2,6,48,38,247,0.883036,1.601832,-15.414651,33.97369362,-117.7738436,347.10165,0.084012,-0.454803,-0.019393
40464,352400000,2021,1,2,6,48,38,247,0.882596,1.601969,-15.414076,33.97369361,-117.7738436,347.101601,0.084017,-0.454968,-0.019377
40465,354900000,2021,1,2,6,48,38,247,0.882182,1.602261,-15.413459,33.9736936,-117.7738436,347.101553,0.084033,-0.455164,-0.019389
40466,357400000,2021,1,2,6,48,38,247,0.881768,1.60132,-15.413517,33.97369359,-117.7738436,347.101504,0.084042,-0.45529,-0.019361
40467,359900000,2021,1,2,6,48,38,247,0.881337,1.600675,-15.413039,33.97369358,-117.7738436,347.101456,0.084071,-0.455503,-0.019381
40468,362400000,2021,1,2,6,48,38,247,0.881211,1.599846,-15.413116,33.97369357,-117.7738436,347.101407,0.084117,-0.455731,-0.019394
40469,364900000,2021,1,2,6,48,38,247,0.880141,1.598841,-15.412903,33.97369356,-117.7738436,347.101359,0.084141,-0.455988,-0.019449
40470,367400000,2021,1,2,6,48,38,247,0.879853,1.599152,-15.412317,33.97369355,-117.7738436,347.10131,0.084165,-0.456282,-0.019403
40471,369900000,2021,1,2,6,48,38,247,0.879171,1.599783,-15.411651,33.97369354,-117.7738436,347.096822,0.084184,-0.456523,-0.020953
40472,372400000,2021,1,2,6,48,38,247,0.878848,1.599857,-15.411757,33.97369353,-117.7738436,347.09677,0.08422,-0.456715,-0.020946
40473,374900000,2021,1,2,6,48,38,247,0.879084,1.600337,-15.411242,33.97369352,-117.7738436,347.096717,0.08427,-0.456988,-0.020889
40474,377400000,2021,1,2,6,48,38,247,0.879341,1.600751,-15.410635,33.97369351,-117.7738436,347.096665,0.084352,-0.457253,-0.020965
40475,379900000,2021,1,2,6,48,38,247,0.879002,1.601109,-15.410501,33.9736935,-117.7738436,347.096612,0.084387,-0.457459,-0.021038
40476,382400000,2021,1,2,6,48,38,247,0.879215,1.601783,-15.410635,33.97369349,-117.7738436,347.09656,0.084441,-0.457599,-0.021061
40477,384900000,2021,1,2,6,48,38,247,0.879926,1.601569,-15.410445,33.97369348,-117.7738436,347.096507,0.084443,-0.457729,-0.021108
40478,387400000,2021,1,2,6,48,38,247,0.880519,1.601468,-15.410143,33.97369347,-117.7738436,347.096454,0.084371,-0.457883,-0.021121
40479,389900000,2021,1,2,6,48,38,247,0.880658,1.600674,-15.40927,33.97369346,-117.7738436,347.091986,0.084396,-0.457971,-0.02276
40480,392400000,2021,1,2,6,48,38,247,0.880739,1.600102,-15.409021,33.97369344,-117.7738436,347.091929,0.084438,-0.458181,-0.022807
40481,394900000,2021,1,2,6,48,38,247,0.88053,1.599797,-15.409185,33.97369343,-117.7738436,347.091872,0.08446,-0.458354,-0.022788
40482,397400000,2021,1,2,6,48,38,247,0.881078,1.59977,-15.408528,33.97369342,-117.7738436,347.091815,0.084521,-0.458598,-0.022798
40483,399900000,2021,1,2,6,48,38,247,0.880888,1.59944,-15.408695,33.97369341,-117.7738436,347.091758,0.08449,-0.458818,-0.022836
40484,402400000,2021,1,2,6,48,38,247,0.880795,1.599546,-15.409305,33.9736934,-117.7738436,347.091701,0.084548,-0.459113,-0.022821
40485,404900000,2021,1,2,6,48,38,247,0.880371,1.600917,-15.408451,33.97369339,-117.7738435,347.091644,0.084604,-0.459433,-0.022799
40486,407400000,2021,1,2,6,48,38,247,0.880675,1.600965,-15.40803,33.97369338,-117.7738435,347.091587,0.084614,-0.459633,-0.022822
40487,409900000,2021,1,2,6,48,38,247,0.880603,1.600805,-15.408088,33.97369337,-117.7738435,347.08714,0.084664,-0.459875,-0.024384
40488,412400000,2021,1,2,6,48,38,247,0.880664,1.601445,-15.407509,33.97369336,-117.7738435,347.087079,0.084743,-0.460111,-0.024425
40489,414900000,2021,1,2,6,48,38,247,0.880639,1.601792,-15.407559,33.97369335,-117.7738435,347.087018,0.084772,-0.460402,-0.024424
40490,417400000,2021,1,2,6,48,38,247,0.881172,1.601753,-15.40681,33.97369334,-117.7738435,347.086957,0.084819,-0.460598,-0.024425
40491,419900000,2021,1,2,6,48,38,247,0.881249,1.602305,-15.406343,33.97369333,-117.7738435,347.086895,0.084832,-0.460811,-0.024509
40492,422400000,2021,1,2,6,48,38,247,0.881036,1.602472,-15.406105,33.97369332,-117.7738435,347.086834,0.084919,-0.461049,-0.024577
40493,424900000,2021,1,2,6,48,38,247,0.880819,1.60216,-15.4059,33.97369331,-117.7738435,347.086773,0.084963,-0.461244,-0.024551
40494,427400000,2021,1,2,6,48,38,247,0.881146,1.601899,-15.405757,33.9736933,-117.7738435,347.086711,0.084959,-0.461481,-0.024598
40495,429900000,2021,1,2,6,48,38,247,0.881866,1.601002,-15.405321,33.97369329,-117.7738435,347.082284,0.085047,-0.4617,-0.026321
40496,432400000,2021,1,2,6,48,38,247,0.881956,1.601564,-15.405676,33.97369328,-117.7738435,347.082218,0.085128,-0.461846,-0.026321
40497,434900000,2021,1,2,6,48,38,247,0.881807,1.601421,-15.406474,33.97369327,-117.7738435,347.082152,0.085159,-0.461972,-0.02637
40498,437400000,2021,1,2,6,48,38,247,0.881251,1.601244,-15.405987,33.97369326,-117.7738435,347.082086,0.08516,-0.462164,-0.026343
40499,439900000,2021,1,2,6,48,38,247,0.88119,1.60132,-15.405265,33.97369325,-117.7738435,347.082021,0.085218,-0.462377,-0.026299
40500,442400000,2021,1,2,6,48,38,247,0.881271,1.601171,-15.405399,33.97369324,-117.7738435,347.081955,0.085276,-0.462581,-0.026267
40501,444900000,2021,1,2,6,48,38,247,0.880555,1.601407,-15.405159,33.97369323,-117.7738435,347.081889,0.085415,-0.462786,-0.026312
40502,447400000,2021,1,2,6,48,38,247,0.88004,1.60134,-15.404742,33.97369322,-117.7738435,347.081824,0.085484,-0.462952,-0.026271
40503,449900000,2021,1,2,6,48,38,247,0.880446,1.60228,-15.403755,33.97369321,-117.7738435,347.082412,0.085532,-0.463138,-0.026098
40504,452400000,2021,1,2,6,48,38,247,0.880672,1.602599,-15.403354,33.9736932,-117.7738435,347.082346,0.085547,-0.463268,-0.026093
40505,454900000,2021,1,2,6,48,38,247,0.880395,1.602519,-15.402621,33.97369319,-117.7738435,347.082281,0.085579,-0.463435,-0.026131
40506,457400000,2021,1,2,6,48,38,247,0.880731,1.60249,-15.402366,33.97369318,-117.7738435,347.082216,0.085573,-0.463647,-0.026192
40507,459900000,2021,1,2,6,48,38,247,0.880899,1.602704,-15.40209,33.97369316,-117.7738435,347.08215,0.085555,-0.463842,-0.026252
40508,462400000,2021,1,2,6,48,38,247,0.879665,1.602811,-15.401593,33.97369315,-117.7738435,347.082085,0.085509,-0.463947,-0.026302
40509,464900000,2021,1,2,6,48,38,247,0.880179,1.602372,-15.401102,33.97369314,-117.7738435,347.082019,0.085507,-0.464135,-0.026373
40510,467400000,2021,1,2,6,48,38,247,0.88022,1.602408,-15.400636,33.97369313,-117.7738435,347.081953,0.085484,-0.464298,-0.026391
40511,469900000,2021,1,2,6,48,38,247,0.881609,1.601588,-15.400614,33.97369312,-117.7738435,347.087563,0.085564,-0.464549,-0.024272
40512,472400000,2021,1,2,6,48,38,247,0.881953,1.601221,-15.400582,33.97369311,-117.7738435,347.087502,0.085593,-0.464723,-0.024348
40513,474900000,2021,1,2,6,48,38,247,0.881685,1.601531,-15.399925,33.9736931,-117.7738435,347.087442,0.085616,-0.464937,-0.024318
40514,477400000,2021,1,2,6,48,38,247,0.881684,1.601946,-15.399452,33.97369309,-117.7738435,347.087381,0.085627,-0.465212,-0.024245
40515,479900000,2021,1,2,6,48,38,247,0.881773,1.602034,-15.398854,33.97369308,-117.7738435,347.08732,0.08566,-0.465493,-0.024251
40516,482400000,2021,1,2,6,48,38,247,0.881338,1.602256,-15.398381,33.97369307,-117.7738435,347.087259,0.085724,-0.465674,-0.024234
40517,484900000,2021,1,2,6,48,38,247,0.881668,1.602065,-15.398136,33.97369306,-117.7738435,347.087199,0.085667,-0.465804,-0.024234
40518,487400000,2021,1,2,6,48,38,247,0.882222,1.60206,-15.397284,33.97369305,-117.7738435,347.087138,0.08568,-0.466044,-0.024221
40519,489900000,2021,1,2,6,48,38,247,0.882812,1.601402,-15.395907,33.97369304,-117.7738435,347.087686,0.085677,-0.46628,-0.024025
40520,492400000,2021,1,2,6,48,38,247,0.882915,1.601128,-15.395663,33.97369303,-117.7738435,347.087626,0.085703,-0.466427,-0.024028
40521,494900000,2021,1,2,6,48,38,247,0.882369,1.601348,-15.395518,33.97369302,-117.7738435,347.087566,0.085769,-0.466653,-0.024038
40522,497400000,2021,1,2,6,48,38,247,0.882596,1.600864,-15.395156,33.97369301,-117.7738435,347.087506,0.085773,-0.466872,-0.024107
40523,499900000,2021,1,2,6,48,38,247,0.882684,1.599605,-15.395706,33.973693,-117.7738435,347.087446,0.085838,-0.467136,-0.024133
40524,502400000,2021,1,2,6,48,38,247,0.882965,1.599656,-15.395389,33.97369299,-117.7738435,347.087385,0.085887,-0.46741,-0.024113
40525,504900000,2021,1,2,6,48,38,247,0.883041,1.598924,-15.394484,33.97369298,-117.7738435,347.087325,0.085938,-0.467688,-0.024136
40526,507400000,2021,1,2,6,48,38,247,0.88296,1.599065,-15.394676,33.97369297,-117.7738435,347.087264,0.085997,-0.467886,-0.024258
40527,509900000,2021,1,2,6,48,38,247,0.883146,1.599254,-15.394134,33.97369296,-117.7738435,347.08274,0.086017,-0.468164,-0.026003
40528,512400000,2021,1,2,6,48,38,247,0.883119,1.599233,-15.393534,33.97369295,-117.7738434,347.082675,0.08606,-0.468471,-0.02601
40529,514900000,2021,1,2,6,48,38,247,0.88295,1.599236,-15.394004,33.97369293,-117.7738434,347.08261,0.086094,-0.468713,-0.025997
40530,517400000,2021,1,2,6,48,38,247,0.882525,1.599746,-15.394216,33.97369292,-117.7738434,347.082545,0.086184,-0.468921,-0.02603
40531,519900000,2021,1,2,6,48,38,247,0.883069,1.600648,-15.393555,33.97369291,-117.7738434,347.08248,0.086163,-0.469063,-0.026005
40532,522400000,2021,1,2,6,48,38,247,0.883248,1.601551,-15.39379,33.9736929,-117.7738434,347.082415,0.086196,-0.469295,-0.026041
40533,524900000,2021,1,2,6,48,38,247,0.883243,1.601389,-15.393737,33.97369289,-117.7738434,347.08235,0.086296,-0.469499,-0.026082
40534,527400000,2021,1,2,6,48,38,247,0.883558,1.602454,-15.393881,33.97369288,-117.7738434,347.082285,0.086305,-0.46966,-0.026138
40535,529900000,2021,1,2,6,48,38,247,0.883711,1.602072,-15.393244,33.97369287,-117.7738434,347.080344,0.086332,-0.469815,-0.026875
40536,532400000,2021,1,2,6,48,38,247,0.884136,1.602117,-15.393034,33.97369286,-117.7738434,347.080277,0.086342,-0.470006,-0.026868
40537,534900000,2021,1,2,6,48,38,247,0.883179,1.601345,-15.391958,33.97369285,-117.7738434,347.08021,0.086402,-0.47021,-0.02693
40538,537400000,2021,1,2,6,48,38,247,0.883103,1.601288,-15.391792,33.97369284,-117.7738434,347.080142,0.086499,-0.470385,-0.026932
40539,539900000,2021,1,2,6,48,38,247,0.882688,1.600637,-15.391397,33.97369283,-117.7738434,347.080075,0.086515,-0.470599,-0.026895
40540,542400000,2021,1,2,6,48,38,247,0.883478,1.600516,-15.390896,33.97369282,-117.7738434,347.080008,0.086568,-0.470789,-0.026919
40541,544900000,2021,1,2,6,48,38,247,0.883541,1.600245,-15.390474,33.97369281,-117.7738434,347.079941,0.086566,-0.471015,-0.026954
40542,547400000,2021,1,2,6,48,38,247,0.883416,1.60035,-15.390648,33.9736928,-117.7738434,347.079873,0.086529,-0.471197,-0.02696
40543,549900000,2021,1,2,6,48,38,247,0.884358,1.600562,-15.390073,33.97369279,-117.7738434,347.080497,0.08652,-0.471368,-0.026738
40544,500000000,2021,1,2,6,48,38,247,,,,,,0,,,
40545,552400000,2021,1,2,6,48,38,247,0.884462,1.600822,-15.391008,33.97369278,-117.7738434,347.08043,0.086498,-0.471569,-0.026772
40546,554900000,2021,1,2,6,48,38,247,0.885022,1.601436,-15.391118,33.97369277,-117.7738434,347.080363,0.086502,-0.471842,-0.026835
40547,557400000,2021,1,2,6,48,38,247,0.88546,1.601498,-15.390496,33.97369275,-117.7738434,347.080296,0.086451,-0.472036,-0.02686
40548,559900000,2021,1,2,6,48,38,247,0.885669,1.601478,-15.389896,33.97369274,-117.7738434,347.080228,0.086458,-0.472259,-0.026921
40549,562400000,2021,1,2,6,48,38,247,0.886328,1.602116,-15.389425,33.97369273,-117.7738434,347.080161,0.086503,-0.472464,-0.026979
40550,564900000,2021,1,2,6,48,38,247,0.886661,1.601915,-15.389978,33.97369272,-117.7738434,347.080094,0.086468,-0.47261,-0.027053
40551,567400000,2021,1,2,6,48,38,247,0.886882,1.601321,-15.389574,33.97369271,-117.7738434,347.080026,0.086425,-0.472836,-0.026981
40552,569900000,2021,1,2,6,48,38,247,0.868381,1.592658,-15.366302,33.97369372,-117.7738435,347.101039,0.083083,-0.444913,-0.019509
40553,572400000,2021,1,2,6,48,38,247,0.868429,1.592627,-15.366508,33.97369371,-117.7738435,347.10099,0.083109,-0.445101,-0.019521
40554,574900000,2021,1,2,6,48,38,247,0.868633,1.59231,-15.366766,33.9736937,-117.7738435,347.100942,0.083147,-0.445261,-0.019521
40555,577400000,2021,1,2,6,48,38,247,0.86864,1.592279,-15.366206,33.97369369,-117.7738435,347.100893,0.08318,-0.445485,-0.019439
40556,579900000,2021,1,2,6,48,38,247,0.868358,1.593131,-15.366336,33.97369368,-117.7738435,347.101329,0.083219,-0.44571,-0.019221
40557,582400000,2021,1,2,6,48,38,247,0.868969,1.593542,-15.366329,33.97369367,-117.7738435,347.101281,0.083285,-0.445967,-0.01922
40558,584900000,2021,1,2,6,48,38,247,0.868908,1.593647,-15.366133,33.97369366,-117.7738435,347.101233,0.083353,-0.446224,-0.019167
